{"version": 0.6, "generator": "Overpass API 0.7.62.1 084b4234", "osm3s": {"timestamp_osm_base": "2024-04-09T16:16:00Z", "copyright": "The data included in this document is from www.openstreetmap.org. The data is made available under ODbL."}, "elements": [{"type": "node", "id": 3545792948, "lat": 55.4771488, "lon": 10.7471556, "tags": {"name": "Stavreshoved", "natural": "cape"}}, {"type": "node", "id": 3786073329, "lat": 55.4474826, "lon": 10.6355623, "tags": {"name": "H\u00f8jn\u00e6s", "natural": "cape"}}, {"type": "node", "id": 9422865571, "lat": 55.158163, "lon": 10.2980546, "tags": {"name": "Teglg\u00e5rd N\u00e6s", "natural": "cape"}}, {"type": "node", "id": 9422865609, "lat": 55.1643027, "lon": 10.9399999, "tags": {"name": "\u00d8ren", "natural": "cape"}}, {"type": "node", "id": 10694990099, "lat": 55.5085105, "lon": 10.7793631, "tags": {"name": "Jordrev", "natural": "cape"}}, {"type": "node", "id": 10694990100, "lat": 55.5116892, "lon": 10.7999113, "tags": {"name": "Syd\u00f8sthuk", "natural": "cape"}}, {"type": "node", "id": 10694990101, "lat": 55.5156001, "lon": 10.7796308, "tags": {"name": "Nordvesthuk", "natural": "cape"}}, {"type": "node", "id": 10694990102, "lat": 55.4146382, "lon": 10.725844, "tags": {"name": "Risinge Hoved", "natural": "cape"}}, {"type": "node", "id": 10695020705, "lat": 55.47316, "lon": 10.4832624, "tags": {"name": "Statsh\u00f8j", "natural": "cape"}}, {"type": "node", "id": 10695020707, "lat": 55.4763782, "lon": 10.4406813, "tags": {"name": "P\u00e6lekrog", "natural": "cape"}}, {"type": "node", "id": 10695020708, "lat": 55.4951744, "lon": 10.4932125, "tags": {"name": "Sohoved", "natural": "cape"}}, {"type": "node", "id": 10695020709, "lat": 55.4990871, "lon": 10.5037992, "tags": {"name": "Galtehoved", "natural": "cape"}}, {"type": "node", "id": 10695020710, "lat": 55.5322831, "lon": 10.4970611, "tags": {"name": "Vigsn\u00e6s", "natural": "cape"}}, {"type": "node", "id": 10695020711, "lat": 55.5388347, "lon": 10.4961726, "tags": {"name": "Flyndern\u00e6s", "natural": "cape"}}]}