{"version": 0.6, "generator": "Overpass API 0.7.62.1 084b4234", "osm3s": {"timestamp_osm_base": "2024-04-09T16:39:28Z", "copyright": "The data included in this document is from www.openstreetmap.org. The data is made available under ODbL."}, "elements": [{"type": "node", "id": 22654943, "lat": 55.9450952, "lon": 11.8545308, "tags": {"name": "Djursn\u00e6s", "natural": "cape", "source:name": "SDFE Danske Stednavne"}}, {"type": "node", "id": 9422822848, "lat": 56.0479289, "lon": 12.0411835, "tags": {"name": "St\u00e6ngehage", "natural": "cape"}}, {"type": "node", "id": 9422822884, "lat": 55.7951311, "lon": 11.6467539, "tags": {"name": "B\u00f8gehoved", "natural": "cape"}}, {"type": "node", "id": 9422822885, "lat": 55.8042079, "lon": 11.6544966, "tags": {"name": "Egen\u00e6s", "natural": "cape"}}, {"type": "node", "id": 9422822886, "lat": 55.8064963, "lon": 11.7145971, "tags": {"name": "Kongs\u00f8re N\u00e6bbe", "natural": "cape"}}, {"type": "node", "id": 9422822896, "lat": 55.9060882, "lon": 11.7524731, "tags": {"name": "Nakke Hage", "natural": "cape"}}, {"type": "node", "id": 10705293007, "lat": 55.8083536, "lon": 11.825718, "tags": {"name": "N\u00e6sset", "natural": "cape"}}, {"type": "node", "id": 10705293017, "lat": 55.9079731, "lon": 12.0227524, "tags": {"name": "Dyrn\u00e6s", "natural": "cape"}}]}