{"version": 0.6, "generator": "Overpass API 0.7.62.1 084b4234", "osm3s": {"timestamp_osm_base": "2024-04-09T16:40:28Z", "copyright": "The data included in this document is from www.openstreetmap.org. The data is made available under ODbL."}, "elements": [{"type": "node", "id": 2312651317, "lat": 55.7679724, "lon": 12.0265279, "tags": {"drinking_water": "no", "name": "Sankt Olavs Kilde", "natural": "spring", "wikidata": "Q23739909", "wikimedia_commons": "File:Sankt Olavs Kilde og pengeblok.jpg"}}, {"type": "node", "id": 6853918785, "lat": 55.8870395, "lon": 11.6663372, "tags": {"name": "Sankt Karens Kilde", "natural": "spring", "short_name": "Sct. Karens Kilde", "tourism": "attraction"}}, {"type": "node", "id": 9346764552, "lat": 55.7521337, "lon": 12.0422856, "tags": {"name": "\u00c5skilde", "natural": "spring"}}, {"type": "node", "id": 9346764553, "lat": 55.7710606, "lon": 11.8108525, "tags": {"name": "Stenkilde", "natural": "spring"}}, {"type": "node", "id": 9346764554, "lat": 55.8665553, "lon": 11.9818665, "tags": {"name": "Frederikskilde", "natural": "spring"}}, {"type": "node", "id": 9346764555, "lat": 55.9452107, "lon": 11.8710055, "tags": {"name": "Boeskilde", "natural": "spring"}}, {"type": "node", "id": 9459694718, "lat": 56.0411288, "lon": 12.0691004, "tags": {"name": "R\u00f8hls Dam", "natural": "spring"}}]}