{"version": 0.6, "generator": "Overpass API 0.7.62.1 084b4234", "osm3s": {"timestamp_osm_base": "2024-04-09T16:16:59Z", "copyright": "The data included in this document is from www.openstreetmap.org. The data is made available under ODbL."}, "elements": [{"type": "node", "id": 9036352352, "lat": 55.2137633, "lon": 10.2262638, "tags": {"natural": "spring"}}, {"type": "node", "id": 9459676170, "lat": 55.5203785, "lon": 10.1173533, "tags": {"name": "Snogskilde", "natural": "spring"}}, {"type": "node", "id": 9459676175, "lat": 55.3441044, "lon": 9.914613, "tags": {"name": "Bl\u00e5kilde", "natural": "spring"}}, {"type": "node", "id": 9459676176, "lat": 55.2653055, "lon": 9.8983011, "tags": {"name": "Sofiekilde", "natural": "spring"}}, {"type": "node", "id": 9459676177, "lat": 55.1486839, "lon": 10.1852768, "tags": {"name": "Bodkilde", "natural": "spring"}}, {"type": "node", "id": 9459676178, "lat": 55.1766453, "lon": 10.1948095, "tags": {"name": "Grevens Kilde", "natural": "spring"}}, {"type": "node", "id": 11104821924, "lat": 55.4199354, "lon": 9.5928827, "tags": {"drinking_water": "no", "natural": "spring"}}]}