{"version": 0.6, "generator": "Overpass API 0.7.62.1 084b4234", "osm3s": {"timestamp_osm_base": "2024-04-09T16:28:15Z", "copyright": "The data included in this document is from www.openstreetmap.org. The data is made available under ODbL."}, "elements": [{"type": "node", "id": 21977304, "lat": 54.8705137, "lon": 11.4306763, "tags": {"name": "Blans Hoved", "natural": "cape"}}, {"type": "node", "id": 22039660, "lat": 54.9493189, "lon": 11.1162865, "tags": {"name": "Klinteodde", "natural": "cape"}}, {"type": "node", "id": 22045228, "lat": 54.8521784, "lon": 11.5645024, "tags": {"name": "Oreby Skovnakke", "natural": "cape"}}, {"type": "node", "id": 22045255, "lat": 54.8573927, "lon": 11.5829104, "tags": {"name": "Rodsn\u00e6s Nakke", "natural": "cape"}}, {"type": "node", "id": 1851009619, "lat": 54.9566391, "lon": 11.1621668, "tags": {"name": "Bj\u00e6lkehoved", "natural": "cape"}}, {"type": "node", "id": 2522633470, "lat": 54.7391719, "lon": 11.595085}, {"type": "node", "id": 2522633477, "lat": 54.7396922, "lon": 11.5953451}, {"type": "node", "id": 2522633479, "lat": 54.7399214, "lon": 11.5945753}, {"type": "node", "id": 2522633481, "lat": 54.7404076, "lon": 11.5949294}, {"type": "node", "id": 2522633482, "lat": 54.740855, "lon": 11.5944734}, {"type": "node", "id": 2522633483, "lat": 54.7407978, "lon": 11.5948194}, {"type": "node", "id": 2522633485, "lat": 54.7412514, "lon": 11.5946504}, {"type": "node", "id": 2522633486, "lat": 54.7413715, "lon": 11.5951703}, {"type": "node", "id": 2522633489, "lat": 54.7414198, "lon": 11.5949614}, {"type": "node", "id": 2522641318, "lat": 54.7360324, "lon": 11.6006844}, {"type": "node", "id": 2522641319, "lat": 54.7362631, "lon": 11.6012031}, {"type": "node", "id": 2522641320, "lat": 54.7362693, "lon": 11.601871}, {"type": "node", "id": 4719282595, "lat": 54.942311, "lon": 11.0873026, "tags": {"name": "N\u00f8jsomheds Odde", "natural": "cape"}}, {"type": "node", "id": 5548884071, "lat": 54.7404029, "lon": 11.5944332}, {"type": "node", "id": 5548884072, "lat": 54.7410455, "lon": 11.5949294}, {"type": "node", "id": 5548884075, "lat": 54.7363041, "lon": 11.6017127}, {"type": "node", "id": 8530825767, "lat": 54.8553484, "lon": 11.7553309, "tags": {"name": "Neble Nakke", "natural": "cape"}}, {"type": "node", "id": 9422782475, "lat": 54.7359677, "lon": 11.6018077}, {"type": "node", "id": 9422782476, "lat": 54.739217, "lon": 11.5955804}, {"type": "node", "id": 9422782477, "lat": 54.7661977, "lon": 11.4884269, "tags": {"name": "Nakken", "natural": "cape"}}, {"type": "node", "id": 9422782478, "lat": 54.832122, "lon": 11.0917703, "tags": {"name": "Hestehoved", "natural": "cape"}}, {"type": "node", "id": 9422782479, "lat": 54.8361822, "lon": 11.0789862, "tags": {"name": "Skaldehoved", "natural": "cape"}}, {"type": "node", "id": 9422782480, "lat": 54.8313085, "lon": 11.1119787, "tags": {"name": "Tr\u00e6lleholm", "natural": "cape"}}, {"type": "node", "id": 9422782481, "lat": 54.8589941, "lon": 11.052815, "tags": {"name": "N\u00f8rreodde", "natural": "cape"}}, {"type": "node", "id": 9422782482, "lat": 54.8519712, "lon": 11.0181905, "tags": {"name": "N\u00f8rren\u00e6s", "natural": "cape"}}, {"type": "node", "id": 9422782483, "lat": 54.846986, "lon": 11.0231441, "tags": {"name": "Blish\u00f8j", "natural": "cape"}}, {"type": "node", "id": 9422782484, "lat": 54.8418243, "lon": 11.0252458, "tags": {"name": "Skovn\u00e6s", "natural": "cape"}}, {"type": "node", "id": 9422782485, "lat": 54.8289594, "lon": 11.0196057, "tags": {"name": "S\u00f8ndern\u00e6s", "natural": "cape"}}, {"type": "node", "id": 9422782486, "lat": 54.8314242, "lon": 10.9748614, "tags": {"name": "Horsn\u00e6s Hage", "natural": "cape"}}, {"type": "node", "id": 9422782487, "lat": 54.8259209, "lon": 10.9679128, "tags": {"name": "Hornfiskenakke", "natural": "cape"}}, {"type": "node", "id": 9422782488, "lat": 54.7613013, "lon": 11.0102165, "tags": {"name": "\u00c5lehoved", "natural": "cape"}}, {"type": "node", "id": 9422782489, "lat": 54.652181, "lon": 11.7117826, "tags": {"name": "T\u00f8nden", "natural": "cape"}}, {"type": "node", "id": 9422782490, "lat": 54.6562574, "lon": 11.723592, "tags": {"name": "Nakken", "natural": "cape"}}, {"type": "node", "id": 9422822822, "lat": 54.8852911, "lon": 11.4819181, "tags": {"name": "Konemades Pynt", "natural": "cape"}}, {"type": "node", "id": 9422822823, "lat": 54.8862517, "lon": 11.5188213, "tags": {"name": "\u00d8sterhoved", "natural": "cape"}}, {"type": "node", "id": 9422822824, "lat": 54.8972392, "lon": 11.4765056, "tags": {"name": "Sunds\u00f8re", "natural": "cape"}}, {"type": "node", "id": 9422822825, "lat": 54.8994698, "lon": 11.4849949, "tags": {"name": "Tj\u00f8rnehuk", "natural": "cape"}}, {"type": "node", "id": 9422822826, "lat": 54.9023409, "lon": 11.4911084, "tags": {"name": "Kv\u00e6ghj\u00f8rne", "natural": "cape"}}, {"type": "node", "id": 10651051506, "lat": 54.7998146, "lon": 11.8109165, "tags": {"name": "Pandebjerg Hoved", "natural": "cape"}}, {"type": "node", "id": 10694317605, "lat": 54.8566472, "lon": 11.6350593, "tags": {"name": "Rommes Nakke", "natural": "cape"}}, {"type": "node", "id": 10694317609, "lat": 54.907254, "lon": 11.4846444, "tags": {"name": "Vejlebanke", "natural": "cape"}}, {"type": "node", "id": 10694317610, "lat": 54.9057794, "lon": 11.481614, "tags": {"name": "Svaleklint", "natural": "cape"}}, {"type": "node", "id": 10694317611, "lat": 54.9130099, "lon": 11.4732959, "tags": {"name": "Persmarks Odde", "natural": "cape"}}, {"type": "node", "id": 10694317614, "lat": 54.9213732, "lon": 11.4014271, "tags": {"name": "Avernakke Hage", "natural": "cape"}}, {"type": "node", "id": 10694317615, "lat": 54.9349187, "lon": 11.375984, "tags": {"name": "Vasen", "natural": "cape"}}, {"type": "node", "id": 10694325636, "lat": 54.8286212, "lon": 10.9851737, "tags": {"name": "Sandodde", "natural": "cape"}}, {"type": "node", "id": 10694325637, "lat": 54.9182622, "lon": 11.0347563, "tags": {"name": "Korsnakke", "natural": "cape"}}, {"type": "node", "id": 10698693812, "lat": 54.8212011, "lon": 10.9854114, "tags": {"name": "Vesterodde", "natural": "cape"}}, {"type": "way", "id": 1021669027, "nodes": [9422782475, 2522641318, 2522641319, 5548884075, 2522641320, 9422782475], "tags": {"name": "Herrernes Holm", "natural": "cape"}}, {"type": "way", "id": 1021669028, "nodes": [2522633470, 9422782476, 2522633477, 2522633481, 2522633483, 5548884072, 2522633486, 2522633489, 2522633485, 2522633482, 5548884071, 2522633479, 2522633470], "tags": {"name": "Kvindernes Holm", "natural": "cape"}}]}