{"version": 0.6, "generator": "Overpass API 0.7.62.1 084b4234", "osm3s": {"timestamp_osm_base": "2024-04-17T16:39:30Z", "copyright": "The data included in this document is from www.openstreetmap.org. The data is made available under ODbL."}, "elements": [{"type": "node", "id": 2292139981, "lat": 55.0838746, "lon": 15.0542444, "tags": {"name": "Amaliekilde", "natural": "spring", "source": "Geodatastyrelsen : SNSOR"}}, {"type": "node", "id": 2292139985, "lat": 55.0217636, "lon": 15.0122332, "tags": {"name": "Bjerreg\u00e5rd Kilde", "natural": "spring", "source": "Geodatastyrelsen : SNSOR"}}, {"type": "node", "id": 2292139996, "lat": 55.1239092, "lon": 15.1277614, "tags": {"name": "Hallebr\u00f8nd", "natural": "spring", "source": "Geodatastyrelsen : SNSOR"}}, {"type": "node", "id": 2292140005, "lat": 55.124216, "lon": 14.9098005, "tags": {"drinking_water": "yes", "name": "Koldekilde", "natural": "spring", "source": "Geodatastyrelsen : SNSOR"}}, {"type": "node", "id": 2292140010, "lat": 55.1407961, "lon": 14.7198523, "tags": {"name": "Prins Christians Kilde", "natural": "spring", "source": "Geodatastyrelsen : SNSOR"}}, {"type": "node", "id": 2292140015, "lat": 55.2902535, "lon": 14.7722283, "tags": {"name": "Rosenkilde", "natural": "spring", "source": "Geodatastyrelsen : SNSOR"}}, {"type": "node", "id": 2292140020, "lat": 55.1628519, "lon": 14.7397686, "tags": {"name": "R\u00f8dbjerg Kilder", "natural": "spring", "source": "Geodatastyrelsen : SNSOR"}}, {"type": "node", "id": 2292140025, "lat": 55.1250917, "lon": 14.8809489, "tags": {"name": "Segen Kilde", "natural": "spring", "source": "Geodatastyrelsen : SNSOR"}}, {"type": "node", "id": 2292140030, "lat": 55.110504, "lon": 14.9047754, "tags": {"drinking_water": "no", "name": "\u00d8rsteds Kilde", "natural": "spring", "source": "Geodatastyrelsen : SNSOR", "wikidata": "Q12314843"}}, {"type": "node", "id": 3523562505, "lat": 55.2470089, "lon": 14.8435467, "tags": {"name": "St. Josef kilde", "natural": "spring"}}, {"type": "node", "id": 3720599538, "lat": 55.1739473, "lon": 14.956015, "tags": {"drinking_water": "no", "name": "Kilde", "name:de": "Quelle", "name:en": "Spring", "natural": "spring"}}, {"type": "node", "id": 5028591131, "lat": 55.2935276, "lon": 14.7636442, "tags": {"drinking_water": "no", "name": "Salomons kilde", "natural": "spring", "wikidata": "Q30154533"}}, {"type": "node", "id": 9459674800, "lat": 55.2907393, "lon": 14.7597787, "tags": {"name": "Guldkilde", "natural": "spring"}}]}