{"version": 0.6, "generator": "Overpass API 0.7.62.1 084b4234", "osm3s": {"timestamp_osm_base": "2024-04-09T16:16:00Z", "copyright": "The data included in this document is from www.openstreetmap.org. The data is made available under ODbL."}, "elements": [{"type": "node", "id": 286200197, "lat": 55.669746, "lon": 9.8180141, "tags": {"name": "Rosenvold Pynt", "natural": "cape"}}, {"type": "node", "id": 320543500, "lat": 55.7575631, "lon": 10.0347005}, {"type": "node", "id": 320543502, "lat": 55.7574989, "lon": 10.0344591}, {"type": "node", "id": 320543504, "lat": 55.7569301, "lon": 10.0321065}, {"type": "node", "id": 1313266533, "lat": 55.7574109, "lon": 10.0346901}, {"type": "node", "id": 1313266550, "lat": 55.7571802, "lon": 10.0330831}, {"type": "node", "id": 1313266571, "lat": 55.7573933, "lon": 10.0349767}, {"type": "node", "id": 1313266651, "lat": 55.7575013, "lon": 10.0350935}, {"type": "node", "id": 1313266682, "lat": 55.7571976, "lon": 10.0339039}, {"type": "node", "id": 1313266720, "lat": 55.7570426, "lon": 10.0331998}, {"type": "node", "id": 1359059460, "lat": 55.6467817, "lon": 10.1625892, "tags": {"name": "Nordrebr\u00e5d", "natural": "cape"}}, {"type": "node", "id": 1401883262, "lat": 55.6938373, "lon": 9.6674338, "tags": {"name": "Holtserhage", "natural": "cape", "tourism": "viewpoint"}}, {"type": "node", "id": 3774773513, "lat": 55.6806214, "lon": 9.7463905, "tags": {"name": "Tr\u00e6skohage", "natural": "cape"}}, {"type": "node", "id": 6898177629, "lat": 55.7571283, "lon": 10.0356922}, {"type": "node", "id": 9397639592, "lat": 55.7349882, "lon": 10.0373535, "tags": {"leisure": "fishing", "name": "B\u00f8gehoved", "natural": "cape"}}, {"type": "node", "id": 9397639593, "lat": 55.7452712, "lon": 10.0818681, "tags": {"name": "As Hoved", "natural": "cape"}}, {"type": "node", "id": 9397639594, "lat": 55.7527455, "lon": 10.0767033, "tags": {"name": "Gulstavns Hage", "natural": "cape"}}, {"type": "node", "id": 10616515569, "lat": 55.625951, "lon": 9.8571257, "tags": {"name": "Kasser Odde", "natural": "cape"}}, {"type": "node", "id": 10616515570, "lat": 55.6272527, "lon": 9.8308581, "tags": {"name": "Trelde Klint", "natural": "cape"}}, {"type": "node", "id": 10616515571, "lat": 55.6602357, "lon": 9.7340571, "tags": {"name": "M\u00f8rkholt Hage", "natural": "cape"}}, {"type": "node", "id": 10616515572, "lat": 55.6798349, "lon": 9.6874255, "tags": {"name": "Brejning Hoved", "natural": "cape"}}, {"type": "node", "id": 10616515573, "lat": 55.7046279, "lon": 9.5795291, "tags": {"name": "Albuen", "natural": "cape"}}, {"type": "node", "id": 10616515574, "lat": 55.7056161, "lon": 9.5931947, "tags": {"name": "Droshoved", "natural": "cape"}}, {"type": "node", "id": 10616515575, "lat": 55.7049549, "lon": 9.6031556, "tags": {"name": "Br\u00f8nsodde", "natural": "cape"}}, {"type": "node", "id": 10616515576, "lat": 55.694167, "lon": 9.9549331, "tags": {"name": "Alb\u00e6k Hoved", "natural": "cape"}}, {"type": "node", "id": 10616562760, "lat": 55.5521251, "lon": 9.8068091, "tags": {"name": "R\u00f8jle Klint", "natural": "cape"}}, {"type": "node", "id": 10616562761, "lat": 55.5510374, "lon": 9.8470666, "tags": {"name": "Staurshoved", "natural": "cape"}}, {"type": "node", "id": 10616828443, "lat": 55.7571232, "lon": 10.035768}, {"type": "node", "id": 10616828444, "lat": 55.7572003, "lon": 10.0358978}, {"type": "node", "id": 10616828445, "lat": 55.7568145, "lon": 10.0322235}, {"type": "node", "id": 10616828446, "lat": 55.7574137, "lon": 10.0346214}, {"type": "node", "id": 10616828447, "lat": 55.7575624, "lon": 10.0348252}, {"type": "node", "id": 10616828448, "lat": 55.7575367, "lon": 10.0349405}, {"type": "node", "id": 10694968363, "lat": 55.5567871, "lon": 10.0360998, "tags": {"name": "Fogense Pynt", "natural": "cape"}}, {"type": "way", "id": 1139043218, "nodes": [10616828446, 1313266682, 1313266720, 10616828445, 320543504, 1313266550, 320543502, 320543500, 10616828447, 10616828448, 1313266651, 10616828444, 10616828443, 6898177629, 1313266571, 1313266533, 10616828446], "tags": {"name": "Nabbet", "natural": "cape"}}]}