{"version": 0.6, "generator": "Overpass API 0.7.62.1 084b4234", "osm3s": {"timestamp_osm_base": "2024-04-09T15:49:20Z", "copyright": "The data included in this document is from www.openstreetmap.org. The data is made available under ODbL."}, "elements": [{"type": "node", "id": 8384920459, "lat": 56.1229069, "lon": 10.4926329, "tags": {"name": "Smumhagen", "natural": "cape"}}, {"type": "node", "id": 8384920460, "lat": 56.1459942, "lon": 10.4913059, "tags": {"name": "Stavs\u00f8re", "natural": "cape"}}, {"type": "node", "id": 9417069467, "lat": 56.2000088, "lon": 10.2802308, "tags": {"name": "Vejlby Hage", "natural": "cape"}}, {"type": "node", "id": 9417069468, "lat": 56.2700184, "lon": 10.3723501, "tags": {"name": "Vosn\u00e6s Pynt", "natural": "cape"}}, {"type": "node", "id": 9417069469, "lat": 56.2783343, "lon": 10.3889431, "tags": {"name": "Hundsh\u00f8j", "natural": "cape"}}, {"type": "node", "id": 9417069470, "lat": 56.2913594, "lon": 10.4006303, "tags": {"name": "Ugelb\u00f8lle Hoved", "natural": "cape"}}, {"type": "node", "id": 9417069471, "lat": 56.2902547, "lon": 10.4164547, "tags": {"name": "M\u00e5ge\u00f8en", "natural": "cape"}}, {"type": "node", "id": 9417069476, "lat": 56.3443854, "lon": 10.9143813, "tags": {"name": "Havknude", "natural": "cape"}}, {"type": "node", "id": 9417069477, "lat": 56.2696109, "lon": 10.5026672, "tags": {"name": "Hundshoved", "natural": "cape"}}, {"type": "node", "id": 9417069478, "lat": 56.2407357, "lon": 10.464845, "tags": {"name": "Skovshoved", "natural": "cape"}}, {"type": "node", "id": 9417069479, "lat": 56.2244198, "lon": 10.4486382, "tags": {"name": "N\u00e6sset", "natural": "cape"}}, {"type": "node", "id": 9417069480, "lat": 56.2000746, "lon": 10.4523562, "tags": {"name": "Kongs\u00f8re Hage", "natural": "cape"}}, {"type": "node", "id": 9417069481, "lat": 56.2030191, "lon": 10.5770749, "tags": {"name": "Bogens Hoved", "natural": "cape"}}, {"type": "node", "id": 9417069482, "lat": 56.1298356, "lon": 10.8048532, "tags": {"name": "Sydhage", "natural": "cape"}}, {"type": "node", "id": 9417069483, "lat": 56.1305635, "lon": 10.7907596, "tags": {"name": "Vesthage", "natural": "cape"}}, {"type": "node", "id": 9417069484, "lat": 56.1361454, "lon": 10.8002504, "tags": {"name": "Nordhage", "natural": "cape"}}, {"type": "node", "id": 9417069485, "lat": 56.1378952, "lon": 10.8045286, "tags": {"name": "\u00d8sthage", "natural": "cape"}}, {"type": "node", "id": 9417069486, "lat": 56.142083, "lon": 10.7141574, "tags": {"name": "Hassens\u00f8r", "natural": "cape"}}, {"type": "node", "id": 9422822906, "lat": 56.0931675, "lon": 10.2482407, "tags": {"name": "Abelshoved", "natural": "cape"}}]}