{"version": 0.6, "generator": "Overpass API 0.7.62.1 084b4234", "osm3s": {"timestamp_osm_base": "2024-04-09T15:50:26Z", "copyright": "The data included in this document is from www.openstreetmap.org. The data is made available under ODbL."}, "elements": [{"type": "node", "id": 1136530993, "lat": 56.7827921, "lon": 9.9159493, "tags": {"name": "Store Bl\u00e5kilde", "natural": "spring", "tourism": "attraction"}}, {"type": "node", "id": 2363448588, "lat": 56.815815, "lon": 9.7973928, "tags": {"name": "Springkilden", "natural": "spring", "note": "Et r\u00f8r, der er banket i jorden"}}, {"type": "node", "id": 6480803755, "lat": 56.6453091, "lon": 9.9801813, "tags": {"alt_name": "Helligkilde", "description": "Ikke langt fra hytten ligger \"Helliget\", der i lang tid efter reformationen var meget s\u00f8gt p\u00e5 grund af sin l\u00e6gedomskraft. Folketraditionen udpeger kilden som stedet, hvor to drabelige riddere, Hem og Sem, udk\u00e6mpede deres ber\u00f8mte duel.", "intermittent": "no", "name": "Helliget", "natural": "spring", "refitted": "yes"}}, {"type": "node", "id": 6781418727, "lat": 56.6442465, "lon": 9.8136149, "tags": {"drinking_water": "yes", "intermittent": "no", "natural": "spring"}}, {"type": "node", "id": 6784103304, "lat": 56.7604457, "lon": 9.7691558, "tags": {"natural": "spring"}}, {"type": "node", "id": 9459643692, "lat": 56.4723342, "lon": 10.1146853, "tags": {"name": "Frals Kjald", "natural": "spring"}}, {"type": "node", "id": 9459643693, "lat": 56.5116827, "lon": 9.9653915, "tags": {"name": "Koldkilde", "natural": "spring"}}, {"type": "node", "id": 9459643694, "lat": 56.5196473, "lon": 10.2106898, "tags": {"name": "Maren Thomasdatters Kilde", "natural": "spring"}}, {"type": "node", "id": 9459643695, "lat": 56.645837, "lon": 9.9803643, "tags": {"name": "Marie Kilde", "natural": "spring"}}, {"type": "node", "id": 9459643696, "lat": 56.6507194, "lon": 9.9878304, "tags": {"name": "Sankt Peders Kilde", "natural": "spring"}}, {"type": "node", "id": 9459643698, "lat": 56.5860484, "lon": 9.8524062, "tags": {"name": "Marekilde", "natural": "spring"}}, {"type": "node", "id": 9459643699, "lat": 56.5868312, "lon": 9.8488691, "tags": {"name": "Torekilde", "natural": "spring"}}, {"type": "node", "id": 9459643700, "lat": 56.6020523, "lon": 9.9842602, "tags": {"name": "Sykilde", "natural": "spring"}}, {"type": "node", "id": 9459643701, "lat": 56.6251291, "lon": 10.1013886, "tags": {"name": "Bredkilde", "natural": "spring"}}, {"type": "node", "id": 9459643703, "lat": 56.6726053, "lon": 9.9466784, "tags": {"name": "Bredkilde", "natural": "spring"}}, {"type": "node", "id": 9459643704, "lat": 56.6637514, "lon": 9.8682607, "tags": {"name": "Fr\u00f8kenkilderne", "natural": "spring"}}, {"type": "node", "id": 9459643705, "lat": 56.7567187, "lon": 9.7619353, "tags": {"name": "Lille Ravnkilde", "natural": "spring"}}, {"type": "node", "id": 10938061148, "lat": 56.4862764, "lon": 9.8175684}, {"type": "node", "id": 10938061149, "lat": 56.4863167, "lon": 9.8174637}, {"type": "node", "id": 10938061150, "lat": 56.4863799, "lon": 9.8174199}, {"type": "node", "id": 10938061151, "lat": 56.4863842, "lon": 9.8175275}, {"type": "node", "id": 10938061152, "lat": 56.4863698, "lon": 9.8176019}, {"type": "node", "id": 10938061153, "lat": 56.4862737, "lon": 9.8176147}, {"type": "node", "id": 10938061154, "lat": 56.4862905, "lon": 9.8175003}, {"type": "node", "id": 10938061155, "lat": 56.4863887, "lon": 9.8174594}, {"type": "node", "id": 10938061156, "lat": 56.4863333, "lon": 9.8176337}, {"type": "node", "id": 10938061157, "lat": 56.4862965, "lon": 9.8176435}, {"type": "node", "id": 10938061158, "lat": 56.4863471, "lon": 9.8174319}, {"type": "node", "id": 11050853291, "lat": 56.7596246, "lon": 9.7691943, "tags": {"natural": "spring"}}, {"type": "way", "id": 1177353156, "nodes": [10938061148, 10938061154, 10938061149, 10938061158, 10938061150, 10938061155, 10938061151, 10938061152, 10938061156, 10938061157, 10938061153, 10938061148], "tags": {"drinking_water": "no", "natural": "spring"}}]}